{
    "total_entries": 19664,
    "per_page": 25,
    "current_page": 1,
    "restaurants": [
        {
            "id": 116272,
            "name": "XO Prime Steaks Pepper Pike",
            "address": "29425 Chagrin Blvd",
            "city": "Pepper Pike",
            "state": "OH",
            "area": "Cleveland / Akron / Canton",
            "postal_code": "44122",
            "country": "US",
            "phone": "2163788988x",
            "lat": 41.462926,
            "lng": -81.470595,
            "price": 3,
            "reserve_url": "http://www.opentable.com/single.aspx?rid=116272",
            "mobile_reserve_url": "http://mobile.opentable.com/opentable/?restId=116272",
            "image_url": "https://www.opentable.com/img/restimages/116272.jpg"
        },
        {
            "id": 138946,
            "name": "Tapas 218",
            "address": "218 Court Ave. NW",
            "city": "Canton",
            "state": "OH",
            "area": "Cleveland / Akron / Canton",
            "postal_code": "44702",
            "country": "US",
            "phone": "3304563888",
            "lat": 40.799485,
            "lng": -81.375328,
            "price": 2,
            "reserve_url": "http://www.opentable.com/single.aspx?rid=138946",
            "mobile_reserve_url": "http://mobile.opentable.com/opentable/?restId=138946",
            "image_url": "https://www.opentable.com/img/restimages/138946.jpg"
        },
        {
            "id": 112465,
            "name": "Lolita - A Michael Symon Restaurant",
            "address": "900 Literary Rd",
            "city": "Cleveland",
            "state": "OH",
            "area": "Cleveland / Akron / Canton",
            "postal_code": "44113",
            "country": "US",
            "phone": "2167715652",
            "lat": 41.481689,
            "lng": -81.687116,
            "price": 3,
            "reserve_url": "http://www.opentable.com/single.aspx?rid=112465",
            "mobile_reserve_url": "http://mobile.opentable.com/opentable/?restId=112465",
            "image_url": "https://www.opentable.com/img/restimages/112465.jpg"
        },
        {
            "id": 138901,
            "name": "Twiisted Bar \u0026 Grill",
            "address": "985 Boardman Alley",
            "city": "Medina",
            "state": "OH",
            "area": "Cleveland / Akron / Canton",
            "postal_code": "44256",
            "country": "US",
            "phone": "330-661-0606x",
            "lat": 41.153419,
            "lng": -81.864608,
            "price": 2,
            "reserve_url": "http://www.opentable.com/single.aspx?rid=138901",
            "mobile_reserve_url": "http://mobile.opentable.com/opentable/?restId=138901",
            "image_url": "https://www.opentable.com/img/restimages/138901.jpg"
        },
        {
            "id": 96892,
            "name": "Ken Stewart's Tre Belle",
            "address": "1911 N. Cleveland Massillon Road",
            "city": "Bath",
            "state": "OH",
            "area": "Cleveland / Akron / Canton",
            "postal_code": "44333",
            "country": "US",
            "phone": "3306669990x",
            "lat": 41.187298,
            "lng": -81.635277,
            "price": 2,
            "reserve_url": "http://www.opentable.com/single.aspx?rid=96892",
            "mobile_reserve_url": "http://mobile.opentable.com/opentable/?restId=96892",
            "image_url": "https://www.opentable.com/img/restimages/96892.jpg"
        },
        {
            "id": 108532,
            "name": "Culinary Arts Restaurant",
            "address": "492 McClurg Road",
            "city": "Boardman",
            "state": "OH",
            "area": "Cleveland / Akron / Canton",
            "postal_code": "44512",
            "country": "US",
            "phone": "3309655899",
            "lat": 40.995733,
            "lng": -80.64484,
            "price": 2,
            "reserve_url": "http://www.opentable.com/single.aspx?rid=108532",
            "mobile_reserve_url": "http://mobile.opentable.com/opentable/?restId=108532",
            "image_url": "https://www.opentable.com/img/restimages/108532.jpg"
        },
        {
            "id": 5634,
            "name": "John Palmer's Bistro 44",
            "address": "7590 Fredle Drive",
            "city": "Concord",
            "state": "OH",
            "area": "Cleveland / Akron / Canton",
            "postal_code": "44077",
            "country": "US",
            "phone": "4403500793",
            "lat": 41.664,
            "lng": -81.24,
            "price": 3,
            "reserve_url": "http://www.opentable.com/single.aspx?rid=5634",
            "mobile_reserve_url": "http://mobile.opentable.com/opentable/?restId=5634",
            "image_url": "https://www.opentable.com/img/restimages/5634.jpg"
        },
        {
            "id": 6065,
            "name": "The Wooster Inn",
            "address": "801 East Wayne Avenue",
            "city": "Wooster",
            "state": "OH",
            "area": "Cleveland / Akron / Canton",
            "postal_code": "44691",
            "country": "US",
            "phone": "3302632660",
            "lat": 40.814,
            "lng": -81.929,
            "price": 2,
            "reserve_url": "http://www.opentable.com/single.aspx?rid=6065",
            "mobile_reserve_url": "http://mobile.opentable.com/opentable/?restId=6065",
            "image_url": "https://www.opentable.com/img/restimages/6065.jpg"
        },
        {
            "id": 25840,
            "name": "SASA",
            "address": "13120 Shaker Square",
            "city": "Cleveland",
            "state": "OH",
            "area": "Cleveland / Akron / Canton",
            "postal_code": "44120",
            "country": "US",
            "phone": "2167671111",
            "lat": 41.483445,
            "lng": -81.591102,
            "price": 2,
            "reserve_url": "http://www.opentable.com/single.aspx?rid=25840",
            "mobile_reserve_url": "http://mobile.opentable.com/opentable/?restId=25840",
            "image_url": "https://www.opentable.com/img/restimages/25840.jpg"
        },
        {
            "id": 136147,
            "name": "Spaghetti Warehouse - Akron",
            "address": "510 S. Main St.",
            "city": "Akron",
            "state": "OH",
            "area": "Cleveland / Akron / Canton",
            "postal_code": "44311",
            "country": "US",
            "phone": "3303740025",
            "lat": 41.072751,
            "lng": -81.524823,
            "price": 2,
            "reserve_url": "http://www.opentable.com/single.aspx?rid=136147",
            "mobile_reserve_url": "http://mobile.opentable.com/opentable/?restId=136147",
            "image_url": "https://www.opentable.com/img/restimages/136147.jpg"
        },
        {
            "id": 106828,
            "name": "Bay Harbor",
            "address": "1 Cedar Point Drive",
            "city": "Sandusky",
            "state": "OH",
            "area": "Cleveland / Akron / Canton",
            "postal_code": "44870",
            "country": "US",
            "phone": "4196256373x",
            "lat": 41.477769,
            "lng": -82.679062,
            "price": 3,
            "reserve_url": "http://www.opentable.com/single.aspx?rid=106828",
            "mobile_reserve_url": "http://mobile.opentable.com/opentable/?restId=106828",
            "image_url": "https://www.opentable.com/img/restimages/106828.jpg"
        },
        {
            "id": 107662,
            "name": "Mentor Harbor Yachting Club",
            "address": "5330 Coronada Drive",
            "city": "Mentor",
            "state": "OH",
            "area": "Cleveland / Akron / Canton",
            "postal_code": "44060",
            "country": "US",
            "phone": "4402577214x",
            "lat": 41.725096,
            "lng": -81.351867,
            "price": 3,
            "reserve_url": "http://www.opentable.com/single.aspx?rid=107662",
            "mobile_reserve_url": "http://mobile.opentable.com/opentable/?restId=107662",
            "image_url": "https://www.opentable.com/img/restimages/107662.jpg"
        },
        {
            "id": 118348,
            "name": "The Overlook",
            "address": "1519 Overlook Road",
            "city": "Kent",
            "state": "OH",
            "area": "Cleveland / Akron / Canton",
            "postal_code": "44240",
            "country": "US",
            "phone": "3306737887x",
            "lat": 41.191799,
            "lng": -81.339534,
            "price": 2,
            "reserve_url": "http://www.opentable.com/single.aspx?rid=118348",
            "mobile_reserve_url": "http://mobile.opentable.com/opentable/?restId=118348",
            "image_url": "https://www.opentable.com/img/restimages/118348.jpg"
        },
        {
            "id": 110065,
            "name": "LAGO Cucina Enotecca and Birreria",
            "address": "1091 W. 10th St.",
            "city": "Cleveland",
            "state": "OH",
            "area": "Cleveland / Akron / Canton",
            "postal_code": "44113",
            "country": "US",
            "phone": "2168628065",
            "lat": 41.500809,
            "lng": -81.703332,
            "price": 3,
            "reserve_url": "http://www.opentable.com/single.aspx?rid=110065",
            "mobile_reserve_url": "http://mobile.opentable.com/opentable/?restId=110065",
            "image_url": "https://www.opentable.com/img/restimages/110065.jpg"
        },
        {
            "id": 90433,
            "name": "D'Agnese's at White Pond",
            "address": "566 White Pond Drive",
            "city": "Akron",
            "state": "OH",
            "area": "Cleveland / Akron / Canton",
            "postal_code": "44320",
            "country": "US",
            "phone": "2346783612x",
            "lat": 41.101381,
            "lng": -81.586795,
            "price": 2,
            "reserve_url": "http://www.opentable.com/single.aspx?rid=90433",
            "mobile_reserve_url": "http://mobile.opentable.com/opentable/?restId=90433",
            "image_url": "https://www.opentable.com/img/restimages/90433.jpg"
        },
        {
            "id": 117703,
            "name": "Peachtree Southern Kitchen and Cocktails",
            "address": "200 N. Main Street",
            "city": "Hudson",
            "state": "OH",
            "area": "Cleveland / Akron / Canton",
            "postal_code": "44236",
            "country": "US",
            "phone": "2343801789",
            "lat": 41.242705,
            "lng": -81.440704,
            "price": 2,
            "reserve_url": "http://www.opentable.com/single.aspx?rid=117703",
            "mobile_reserve_url": "http://mobile.opentable.com/opentable/?restId=117703",
            "image_url": "https://www.opentable.com/img/restimages/117703.jpg"
        },
        {
            "id": 107638,
            "name": "Skye Bistro",
            "address": "8434 Mentor Ave",
            "city": "Mentor",
            "state": "OH",
            "area": "Cleveland / Akron / Canton",
            "postal_code": "44060",
            "country": "US",
            "phone": "4409743572x",
            "lat": 41.666241,
            "lng": -81.338769,
            "price": 2,
            "reserve_url": "http://www.opentable.com/single.aspx?rid=107638",
            "mobile_reserve_url": "http://mobile.opentable.com/opentable/?restId=107638",
            "image_url": "https://www.opentable.com/img/restimages/107638.jpg"
        },
        {
            "id": 107134,
            "name": "Crush - Sandusky",
            "address": "145 Columbus Ave.",
            "city": "Sandusky",
            "state": "OH",
            "area": "Cleveland / Akron / Canton",
            "postal_code": "44870",
            "country": "US",
            "phone": "4195029463x2",
            "lat": 41.45646,
            "lng": -82.712392,
            "price": 2,
            "reserve_url": "http://www.opentable.com/single.aspx?rid=107134",
            "mobile_reserve_url": "http://mobile.opentable.com/opentable/?restId=107134",
            "image_url": "https://www.opentable.com/img/restimages/107134.jpg"
        },
        {
            "id": 112477,
            "name": "Nighttown",
            "address": "12387 Cedar Ave",
            "city": "Cleveland Heights",
            "state": "OH",
            "area": "Cleveland / Akron / Canton",
            "postal_code": "44106",
            "country": "US",
            "phone": "2167950550",
            "lat": 41.501006,
            "lng": -81.59614,
            "price": 2,
            "reserve_url": "http://www.opentable.com/single.aspx?rid=112477",
            "mobile_reserve_url": "http://mobile.opentable.com/opentable/?restId=112477",
            "image_url": "https://www.opentable.com/img/restimages/112477.jpg"
        },
        {
            "id": 103036,
            "name": "North Coast Cafe",
            "address": "9801 Carnegie Avenue",
            "city": "Cleveland",
            "state": "OH",
            "area": "Cleveland / Akron / Canton",
            "postal_code": "44106",
            "country": "US",
            "phone": "2167074051x",
            "lat": 41.501782,
            "lng": -81.619722,
            "price": 2,
            "reserve_url": "http://www.opentable.com/single.aspx?rid=103036",
            "mobile_reserve_url": "http://mobile.opentable.com/opentable/?restId=103036",
            "image_url": "https://www.opentable.com/img/restimages/103036.jpg"
        },
        {
            "id": 90835,
            "name": "D.B.A.",
            "address": "21 Furnace Street",
            "city": "Akron",
            "state": "OH",
            "area": "Cleveland / Akron / Canton",
            "postal_code": "44308",
            "country": "US",
            "phone": "3303755050x",
            "lat": 41.088834,
            "lng": -81.515739,
            "price": 2,
            "reserve_url": "http://www.opentable.com/single.aspx?rid=90835",
            "mobile_reserve_url": "http://mobile.opentable.com/opentable/?restId=90835",
            "image_url": "https://www.opentable.com/img/restimages/90835.jpg"
        },
        {
            "id": 29239,
            "name": "Parallax Restaurant \u0026 Lounge",
            "address": "2179 W. Eleventh St.",
            "city": "Cleveland",
            "state": "OH",
            "area": "Cleveland / Akron / Canton",
            "postal_code": "44113",
            "country": "US",
            "phone": "2165839999",
            "lat": 41.482446,
            "lng": -81.689343,
            "price": 2,
            "reserve_url": "http://www.opentable.com/single.aspx?rid=29239",
            "mobile_reserve_url": "http://mobile.opentable.com/opentable/?restId=29239",
            "image_url": "https://www.opentable.com/img/restimages/29239.jpg"
        },
        {
            "id": 4465,
            "name": "Pier W",
            "address": "12700 Lake Avenue",
            "city": "Cleveland",
            "state": "OH",
            "area": "Cleveland / Akron / Canton",
            "postal_code": "44107",
            "country": "US",
            "phone": "2162282250",
            "lat": 41.492507,
            "lng": -81.779029,
            "price": 3,
            "reserve_url": "http://www.opentable.com/single.aspx?rid=4465",
            "mobile_reserve_url": "http://mobile.opentable.com/opentable/?restId=4465",
            "image_url": "https://www.opentable.com/img/restimages/4465.jpg"
        },
        {
            "id": 37129,
            "name": "DANTE",
            "address": "2247 Professor Ave",
            "city": "Tremont",
            "state": "OH",
            "area": "Cleveland / Akron / Canton",
            "postal_code": "44113",
            "country": "US",
            "phone": "2162741200x",
            "lat": 41.48161,
            "lng": -81.686331,
            "price": 3,
            "reserve_url": "http://www.opentable.com/single.aspx?rid=37129",
            "mobile_reserve_url": "http://mobile.opentable.com/opentable/?restId=37129",
            "image_url": "https://www.opentable.com/img/restimages/37129.jpg"
        },
        {
            "id": 86371,
            "name": "Shuhei",
            "address": "23360 Chagrin Blvd",
            "city": "Beachwood",
            "state": "OH",
            "area": "Cleveland / Akron / Canton",
            "postal_code": "44122",
            "country": "US",
            "phone": "2164641720",
            "lat": 41.463769,
            "lng": -81.514266,
            "price": 2,
            "reserve_url": "http://www.opentable.com/single.aspx?rid=86371",
            "mobile_reserve_url": "http://mobile.opentable.com/opentable/?restId=86371",
            "image_url": "https://www.opentable.com/img/restimages/86371.jpg"
        }
    ]
}